[
  {
    "name": "Orn - Satterfield",
    "hours": [],
    "phone_number": "157.680.1064 x0409",
    "address": {
      "address_line": "2698 Lexi Mountains",
      "city": "North Connormouth",
      "zip_code": "76425",
      "state": "Missouri",
      "cc": "Yemen"
    }
  },
  {
    "name": "Hills - Hudson",
    "hours": [],
    "phone_number": "1-008-722-2218 x244",
    "address": {
      "address_line": "80131 Damian Isle",
      "city": "Welchside",
      "zip_code": "36664-0665",
      "state": "South Carolina",
      "cc": "Bosnia and Herzegovina"
    }
  },
  {
    "name": "Barton - Kuhn",
    "hours": [],
    "phone_number": "462.390.3061 x87395",
    "address": {
      "address_line": "254 Murazik Key",
      "city": "Moorefurt",
      "zip_code": "27982",
      "state": "Ohio",
      "cc": "Italy"
    }
  },
  {
    "name": "Deckow, Bins and Hamill",
    "hours": [],
    "phone_number": "855.624.9032 x91250",
    "address": {
      "address_line": "5506 Gorczany Land",
      "city": "New Mariahland",
      "zip_code": "37169-3577",
      "state": "Pennsylvania",
      "cc": "Czech Republic"
    }
  },
  {
    "name": "Blanda LLC",
    "hours": [],
    "phone_number": "1-617-912-7852",
    "address": {
      "address_line": "140 Juston Station",
      "city": "North Damienbury",
      "zip_code": "79080-0694",
      "state": "Missouri",
      "cc": "Nauru"
    }
  },
  {
    "name": "Little - Watsica",
    "hours": [],
    "phone_number": "049-941-4171 x410",
    "address": {
      "address_line": "345 Monahan Gardens",
      "city": "Vickieshire",
      "zip_code": "67894-5662",
      "state": "Utah",
      "cc": "Armenia"
    }
  },
  {
    "name": "Hayes - Hayes",
    "hours": [],
    "phone_number": "(232) 879-9048",
    "address": {
      "address_line": "0488 Dina Pass",
      "city": "Misaelmouth",
      "zip_code": "97556",
      "state": "Alaska",
      "cc": "Monaco"
    }
  },
  {
    "name": "Okuneva and Sons",
    "hours": [],
    "phone_number": "1-411-768-3752 x38371",
    "address": {
      "address_line": "30695 McGlynn Forest",
      "city": "North Lukas",
      "zip_code": "53507",
      "state": "Mississippi",
      "cc": "Trinidad and Tobago"
    }
  },
  {
    "name": "Keeling, Leannon and Bergstrom",
    "hours": [],
    "phone_number": "576.818.4347 x01671",
    "address": {
      "address_line": "0148 Walker Way",
      "city": "New Alba",
      "zip_code": "05014",
      "state": "New Jersey",
      "cc": "Liechtenstein"
    }
  },
  {
    "name": "Hudson Group",
    "hours": [],
    "phone_number": "1-547-212-8387",
    "address": {
      "address_line": "797 Schumm Burg",
      "city": "Port Will",
      "zip_code": "83925",
      "state": "Iowa",
      "cc": "Senegal"
    }
  },
  {
    "name": "Tremblay, Von and Cassin",
    "hours": [],
    "phone_number": "450-898-8991 x048",
    "address": {
      "address_line": "5984 Adelia Crest",
      "city": "Port Fletcher",
      "zip_code": "99766",
      "state": "Georgia",
      "cc": "Rwanda"
    }
  },
  {
    "name": "Krajcik, Mante and Lindgren",
    "hours": [],
    "phone_number": "(366) 705-0373 x067",
    "address": {
      "address_line": "69545 Heller Station",
      "city": "Ernastad",
      "zip_code": "44931-9496",
      "state": "Michigan",
      "cc": "Suriname"
    }
  },
  {
    "name": "Tillman Group",
    "hours": [],
    "phone_number": "1-609-862-6013 x62080",
    "address": {
      "address_line": "516 Feil Crest",
      "city": "Greenholtmouth",
      "zip_code": "81424",
      "state": "Kentucky",
      "cc": "Djibouti"
    }
  },
  {
    "name": "Greenfelder - Schaefer",
    "hours": [],
    "phone_number": "1-020-846-8689 x125",
    "address": {
      "address_line": "770 Elliott Road",
      "city": "Streichton",
      "zip_code": "65476",
      "state": "Mississippi",
      "cc": "Saint Vincent and the Grenadines"
    }
  },
  {
    "name": "Cartwright Inc",
    "hours": [],
    "phone_number": "833.676.2605 x0179",
    "address": {
      "address_line": "8418 Abby Harbor",
      "city": "Treutelview",
      "zip_code": "13399-3089",
      "state": "Illinois",
      "cc": "Angola"
    }
  },
  {
    "name": "Bauch and Sons",
    "hours": [],
    "phone_number": "902.698.4681",
    "address": {
      "address_line": "1791 Alek Curve",
      "city": "O'Reillychester",
      "zip_code": "95557-2178",
      "state": "Delaware",
      "cc": "Liberia"
    }
  },
  {
    "name": "Bode, Cronin and Dach",
    "hours": [],
    "phone_number": "322-196-5469 x8466",
    "address": {
      "address_line": "733 Janice Estates",
      "city": "South Sydneymouth",
      "zip_code": "33909",
      "state": "Florida",
      "cc": "Jamaica"
    }
  },
  {
    "name": "Schmitt, Mueller and Denesik",
    "hours": [],
    "phone_number": "1-363-161-4586 x600",
    "address": {
      "address_line": "40708 Pietro Plains",
      "city": "East Vedaland",
      "zip_code": "62141-8730",
      "state": "Michigan",
      "cc": "Switzerland"
    }
  },
  {
    "name": "Dicki - Moore",
    "hours": [],
    "phone_number": "(339) 447-9217 x53774",
    "address": {
      "address_line": "806 Kuhic Land",
      "city": "West Blakemouth",
      "zip_code": "72156",
      "state": "Florida",
      "cc": "Micronesia"
    }
  },
  {
    "name": "Pfannerstill, Reichert and Bosco",
    "hours": [],
    "phone_number": "978-075-7988 x9541",
    "address": {
      "address_line": "345 Deckow Forks",
      "city": "West Aniyaborough",
      "zip_code": "61271-1237",
      "state": "Kentucky",
      "cc": "Qatar"
    }
  },
  {
    "name": "Morissette and Sons",
    "hours": [],
    "phone_number": "(466) 846-6307 x701",
    "address": {
      "address_line": "033 Vandervort Ridge",
      "city": "West Eduardo",
      "zip_code": "55469-5504",
      "state": "Wyoming",
      "cc": "Switzerland"
    }
  },
  {
    "name": "Parisian - Crona",
    "hours": [],
    "phone_number": "(806) 222-0950 x613",
    "address": {
      "address_line": "91232 Linwood Street",
      "city": "South Ramonaton",
      "zip_code": "95995-3192",
      "state": "Hawaii",
      "cc": "Christmas Island"
    }
  },
  {
    "name": "Herman Inc",
    "hours": [],
    "phone_number": "174-573-9755",
    "address": {
      "address_line": "1187 Goodwin Rest",
      "city": "Elenorport",
      "zip_code": "62014",
      "state": "Arkansas",
      "cc": "Hong Kong"
    }
  },
  {
    "name": "Haag, Schiller and Rath",
    "hours": [],
    "phone_number": "1-297-665-0189",
    "address": {
      "address_line": "2931 Mosciski Valley",
      "city": "Medhurstmouth",
      "zip_code": "09483",
      "state": "North Carolina",
      "cc": "Jordan"
    }
  },
  {
    "name": "Fay and Sons",
    "hours": [],
    "phone_number": "1-449-559-9390",
    "address": {
      "address_line": "0557 Raynor Walk",
      "city": "North Alexandria",
      "zip_code": "68819-3638",
      "state": "Montana",
      "cc": "Bhutan"
    }
  },
  {
    "name": "Gerlach - Ledner",
    "hours": [],
    "phone_number": "(837) 583-3277 x9085",
    "address": {
      "address_line": "612 Willy Cliff",
      "city": "New Rick",
      "zip_code": "64507-3269",
      "state": "Virginia",
      "cc": "Canada"
    }
  },
  {
    "name": "Mills - Hackett",
    "hours": [],
    "phone_number": "560-308-3295",
    "address": {
      "address_line": "8555 Stephen Hollow",
      "city": "New Justushaven",
      "zip_code": "23768-3980",
      "state": "North Carolina",
      "cc": "Dominican Republic"
    }
  },
  {
    "name": "Raynor - Dickens",
    "hours": [],
    "phone_number": "419-326-2806 x402",
    "address": {
      "address_line": "9833 Yundt Crossing",
      "city": "Kaileytown",
      "zip_code": "72141-6226",
      "state": "Connecticut",
      "cc": "Cameroon"
    }
  },
  {
    "name": "Adams - Mitchell",
    "hours": [],
    "phone_number": "1-600-983-4851",
    "address": {
      "address_line": "067 Alfred Terrace",
      "city": "West Trinity",
      "zip_code": "23672-6714",
      "state": "Wisconsin",
      "cc": "Guam"
    }
  },
  {
    "name": "Weimann LLC",
    "hours": [],
    "phone_number": "887-120-4341",
    "address": {
      "address_line": "9926 Bashirian Spur",
      "city": "Port Leola",
      "zip_code": "91954",
      "state": "Utah",
      "cc": "Svalbard & Jan Mayen Islands"
    }
  },
  {
    "name": "Langworth, Cummerata and Homenick",
    "hours": [],
    "phone_number": "310-951-3259 x084",
    "address": {
      "address_line": "513 Kovacek Canyon",
      "city": "Kubbury",
      "zip_code": "23093-2013",
      "state": "Nebraska",
      "cc": "Hong Kong"
    }
  },
  {
    "name": "Hartmann Group",
    "hours": [],
    "phone_number": "(732) 729-4114 x1861",
    "address": {
      "address_line": "66078 Rolfson Brooks",
      "city": "West Idellaside",
      "zip_code": "05931-3282",
      "state": "Kentucky",
      "cc": "Belarus"
    }
  },
  {
    "name": "Lowe - Morar",
    "hours": [],
    "phone_number": "1-520-624-1183 x6636",
    "address": {
      "address_line": "56960 Leuschke Plains",
      "city": "New Alexandreashire",
      "zip_code": "87478",
      "state": "Wisconsin",
      "cc": "French Guiana"
    }
  },
  {
    "name": "Deckow - Davis",
    "hours": [],
    "phone_number": "1-467-734-9516",
    "address": {
      "address_line": "69442 Kamron Springs",
      "city": "Port Leone",
      "zip_code": "77344",
      "state": "North Carolina",
      "cc": "Venezuela"
    }
  },
  {
    "name": "Ward Inc",
    "hours": [],
    "phone_number": "181-710-7245 x6088",
    "address": {
      "address_line": "75142 Ewald Vista",
      "city": "Margaritahaven",
      "zip_code": "69677-7857",
      "state": "Montana",
      "cc": "Malta"
    }
  },
  {
    "name": "Fisher, Koelpin and Koch",
    "hours": [],
    "phone_number": "1-850-655-4879",
    "address": {
      "address_line": "87132 Beaulah Village",
      "city": "Lake Lue",
      "zip_code": "67503",
      "state": "Kansas",
      "cc": "Panama"
    }
  },
  {
    "name": "Olson - Leuschke",
    "hours": [],
    "phone_number": "1-471-532-1827 x1945",
    "address": {
      "address_line": "62851 Johns Landing",
      "city": "Percymouth",
      "zip_code": "81686",
      "state": "Louisiana",
      "cc": "Iceland"
    }
  },
  {
    "name": "Koch, Quitzon and Bednar",
    "hours": [],
    "phone_number": "1-242-771-8935 x06756",
    "address": {
      "address_line": "3403 Jamal Ways",
      "city": "Reillymouth",
      "zip_code": "34883-5689",
      "state": "Alabama",
      "cc": "Nauru"
    }
  },
  {
    "name": "Skiles Group",
    "hours": [],
    "phone_number": "1-300-017-9930",
    "address": {
      "address_line": "51759 Smith Fall",
      "city": "Lake Rory",
      "zip_code": "45472",
      "state": "Georgia",
      "cc": "Uruguay"
    }
  },
  {
    "name": "O'Hara and Sons",
    "hours": [],
    "phone_number": "1-533-796-2969 x4412",
    "address": {
      "address_line": "24728 Sadie Passage",
      "city": "South Chandlerberg",
      "zip_code": "71457",
      "state": "Kentucky",
      "cc": "China"
    }
  },
  {
    "name": "Lockman Inc",
    "hours": [],
    "phone_number": "142-075-7585",
    "address": {
      "address_line": "83010 Prohaska Underpass",
      "city": "North Bonitaport",
      "zip_code": "37196",
      "state": "Alaska",
      "cc": "Togo"
    }
  },
  {
    "name": "Bartoletti - Schaefer",
    "hours": [],
    "phone_number": "(741) 967-4544",
    "address": {
      "address_line": "258 Pollich Village",
      "city": "Daphneymouth",
      "zip_code": "51267",
      "state": "North Dakota",
      "cc": "Ecuador"
    }
  },
  {
    "name": "Nienow - Raynor",
    "hours": [],
    "phone_number": "(368) 737-4797 x25566",
    "address": {
      "address_line": "008 Hoeger Spring",
      "city": "Wolffmouth",
      "zip_code": "74675-6226",
      "state": "Oregon",
      "cc": "Faroe Islands"
    }
  },
  {
    "name": "Harris LLC",
    "hours": [],
    "phone_number": "899.914.0151",
    "address": {
      "address_line": "594 Yasmine Spring",
      "city": "East Abby",
      "zip_code": "49063",
      "state": "South Carolina",
      "cc": "Turkey"
    }
  },
  {
    "name": "Reinger, Waters and Boehm",
    "hours": [],
    "phone_number": "(582) 132-5138",
    "address": {
      "address_line": "5131 Anita Knolls",
      "city": "West Lonfurt",
      "zip_code": "95129-5758",
      "state": "Kentucky",
      "cc": "Canada"
    }
  },
  {
    "name": "Rau, Quigley and Feil",
    "hours": [],
    "phone_number": "994.091.9591",
    "address": {
      "address_line": "45118 Ward Via",
      "city": "Lake Kitty",
      "zip_code": "33087-6921",
      "state": "Georgia",
      "cc": "Bermuda"
    }
  },
  {
    "name": "Grimes - Mueller",
    "hours": [],
    "phone_number": "1-438-148-4826",
    "address": {
      "address_line": "6793 Bergnaum Motorway",
      "city": "Howechester",
      "zip_code": "63163-6638",
      "state": "Michigan",
      "cc": "Ecuador"
    }
  },
  {
    "name": "Ortiz - Kessler",
    "hours": [],
    "phone_number": "(511) 953-4623",
    "address": {
      "address_line": "21495 Ellsworth Bypass",
      "city": "Rosalindaland",
      "zip_code": "76171",
      "state": "Wyoming",
      "cc": "Iraq"
    }
  },
  {
    "name": "Waters LLC",
    "hours": [],
    "phone_number": "944.443.9950",
    "address": {
      "address_line": "32667 Turner Park",
      "city": "Kreigerberg",
      "zip_code": "53498",
      "state": "Arkansas",
      "cc": "Oman"
    }
  },
  {
    "name": "Ledner, Hermann and Boehm",
    "hours": [],
    "phone_number": "1-914-779-7851 x69088",
    "address": {
      "address_line": "0545 Willms Spring",
      "city": "East Ophelia",
      "zip_code": "01384-2848",
      "state": "Nebraska",
      "cc": "Saint Barthelemy"
    }
  },
  {
    "name": "Franecki, Jacobi and Pollich",
    "hours": [],
    "phone_number": "(790) 643-3269",
    "address": {
      "address_line": "70906 Enoch Route",
      "city": "Blandabury",
      "zip_code": "34905-1120",
      "state": "Texas",
      "cc": "Lebanon"
    }
  },
  {
    "name": "Kuhic - Kessler",
    "hours": [],
    "phone_number": "420.872.6819",
    "address": {
      "address_line": "20316 Mekhi Shoal",
      "city": "Kunzefort",
      "zip_code": "85278",
      "state": "California",
      "cc": "Bulgaria"
    }
  },
  {
    "name": "Mills - Cremin",
    "hours": [],
    "phone_number": "099-616-9110",
    "address": {
      "address_line": "6645 Littel Locks",
      "city": "East Joseph",
      "zip_code": "17559",
      "state": "Massachusetts",
      "cc": "Spain"
    }
  },
  {
    "name": "Cruickshank, Romaguera and Cronin",
    "hours": [],
    "phone_number": "969-816-4188",
    "address": {
      "address_line": "91287 Monahan Prairie",
      "city": "Gusikowskifurt",
      "zip_code": "75566-4345",
      "state": "Oklahoma",
      "cc": "Palau"
    }
  },
  {
    "name": "Haag, Purdy and Schmidt",
    "hours": [],
    "phone_number": "812-510-9968",
    "address": {
      "address_line": "770 Fisher Stream",
      "city": "East Aishaborough",
      "zip_code": "99367-2871",
      "state": "Nebraska",
      "cc": "Niger"
    }
  },
  {
    "name": "Sanford, Kunde and Douglas",
    "hours": [],
    "phone_number": "211.282.1542",
    "address": {
      "address_line": "35647 Hane Prairie",
      "city": "South Nikoside",
      "zip_code": "22124",
      "state": "Nevada",
      "cc": "Namibia"
    }
  },
  {
    "name": "Heidenreich Group",
    "hours": [],
    "phone_number": "769.069.7051",
    "address": {
      "address_line": "1763 Mraz Track",
      "city": "Lornabury",
      "zip_code": "72462",
      "state": "Wyoming",
      "cc": "Kenya"
    }
  },
  {
    "name": "Rutherford, McLaughlin and Kuvalis",
    "hours": [],
    "phone_number": "063.081.3173 x24068",
    "address": {
      "address_line": "6484 Kautzer Ports",
      "city": "Jordanport",
      "zip_code": "90772",
      "state": "New Hampshire",
      "cc": "Bermuda"
    }
  },
  {
    "name": "Littel, Lind and Hudson",
    "hours": [],
    "phone_number": "572-424-3521",
    "address": {
      "address_line": "04226 Hagenes Greens",
      "city": "Jackfort",
      "zip_code": "57677",
      "state": "Connecticut",
      "cc": "Italy"
    }
  },
  {
    "name": "Mueller, Littel and Rodriguez",
    "hours": [],
    "phone_number": "487-990-0451 x4140",
    "address": {
      "address_line": "10909 Shanahan Valley",
      "city": "East Saul",
      "zip_code": "16956",
      "state": "North Dakota",
      "cc": "Netherlands"
    }
  },
  {
    "name": "Hudson - McKenzie",
    "hours": [],
    "phone_number": "(318) 114-7206 x9490",
    "address": {
      "address_line": "4291 Dallas Islands",
      "city": "West Jaydamouth",
      "zip_code": "60499",
      "state": "Rhode Island",
      "cc": "Saint Kitts and Nevis"
    }
  },
  {
    "name": "Blick LLC",
    "hours": [],
    "phone_number": "919.851.0664 x1410",
    "address": {
      "address_line": "39648 Nellie Crossing",
      "city": "East Ila",
      "zip_code": "36247",
      "state": "Missouri",
      "cc": "Saint Martin"
    }
  },
  {
    "name": "Quigley, Rempel and Roberts",
    "hours": [],
    "phone_number": "1-711-939-7646 x6554",
    "address": {
      "address_line": "4846 Nolan Turnpike",
      "city": "Schadenshire",
      "zip_code": "88192-7426",
      "state": "Wyoming",
      "cc": "Heard Island and McDonald Islands"
    }
  },
  {
    "name": "Borer - Franecki",
    "hours": [],
    "phone_number": "1-909-124-3372 x914",
    "address": {
      "address_line": "4146 Cleo Corners",
      "city": "Luciousbury",
      "zip_code": "24432-9978",
      "state": "Wisconsin",
      "cc": "Micronesia"
    }
  },
  {
    "name": "Schuster, Tromp and Ruecker",
    "hours": [],
    "phone_number": "300-838-2731",
    "address": {
      "address_line": "0298 Rowe Forges",
      "city": "New Josianeshire",
      "zip_code": "14835",
      "state": "South Carolina",
      "cc": "Barbados"
    }
  },
  {
    "name": "Turcotte, Stehr and Schmeler",
    "hours": [],
    "phone_number": "(693) 244-6628",
    "address": {
      "address_line": "3698 Bennie Mountain",
      "city": "Port Abigayle",
      "zip_code": "00852",
      "state": "Oregon",
      "cc": "Greenland"
    }
  },
  {
    "name": "Klocko Inc",
    "hours": [],
    "phone_number": "(840) 240-5717",
    "address": {
      "address_line": "4933 Littel Neck",
      "city": "Wolffport",
      "zip_code": "98335",
      "state": "Delaware",
      "cc": "Sierra Leone"
    }
  },
  {
    "name": "Grant, Bailey and Beahan",
    "hours": [],
    "phone_number": "342-754-3819 x7781",
    "address": {
      "address_line": "75899 Rutherford Run",
      "city": "Port Guillermo",
      "zip_code": "38833",
      "state": "Ohio",
      "cc": "Uzbekistan"
    }
  },
  {
    "name": "Littel - Fadel",
    "hours": [],
    "phone_number": "427.714.0894 x19200",
    "address": {
      "address_line": "697 Kshlerin Street",
      "city": "Rosettaton",
      "zip_code": "22029-0519",
      "state": "Kentucky",
      "cc": "Oman"
    }
  },
  {
    "name": "Cartwright, Abshire and Hegmann",
    "hours": [],
    "phone_number": "900.961.1088 x05736",
    "address": {
      "address_line": "89608 Joana Knolls",
      "city": "Lake Maribel",
      "zip_code": "79117",
      "state": "Kentucky",
      "cc": "Hong Kong"
    }
  },
  {
    "name": "Flatley, Jacobi and Ratke",
    "hours": [],
    "phone_number": "224-769-8669",
    "address": {
      "address_line": "985 Dario Garden",
      "city": "Jadentown",
      "zip_code": "81264",
      "state": "Kansas",
      "cc": "Nauru"
    }
  },
  {
    "name": "Jacobi Group",
    "hours": [],
    "phone_number": "1-410-266-5286 x734",
    "address": {
      "address_line": "203 Wolf View",
      "city": "Hickleview",
      "zip_code": "29546-2487",
      "state": "Colorado",
      "cc": "Aruba"
    }
  },
  {
    "name": "Bednar, Abshire and Cronin",
    "hours": [],
    "phone_number": "1-063-672-9439 x4640",
    "address": {
      "address_line": "050 Kertzmann Point",
      "city": "Fernmouth",
      "zip_code": "63682-1906",
      "state": "Vermont",
      "cc": "Lesotho"
    }
  },
  {
    "name": "Quitzon, Leuschke and O'Reilly",
    "hours": [],
    "phone_number": "1-511-480-7209 x7214",
    "address": {
      "address_line": "68551 Legros Greens",
      "city": "Lake Bertrand",
      "zip_code": "47417-6691",
      "state": "Arizona",
      "cc": "Falkland Islands (Malvinas)"
    }
  },
  {
    "name": "Leannon - Paucek",
    "hours": [],
    "phone_number": "264-495-0130",
    "address": {
      "address_line": "679 Heathcote Bridge",
      "city": "North Abdielland",
      "zip_code": "43485",
      "state": "Illinois",
      "cc": "Northern Mariana Islands"
    }
  },
  {
    "name": "Stroman - Kovacek",
    "hours": [],
    "phone_number": "974-505-2040",
    "address": {
      "address_line": "579 Erdman Heights",
      "city": "Port Dariusfort",
      "zip_code": "80826-2974",
      "state": "New Hampshire",
      "cc": "Brunei Darussalam"
    }
  },
  {
    "name": "Bednar - O'Hara",
    "hours": [],
    "phone_number": "223-186-4426 x258",
    "address": {
      "address_line": "76791 Stefan Island",
      "city": "South Leathahaven",
      "zip_code": "82020-5336",
      "state": "Maine",
      "cc": "Indonesia"
    }
  },
  {
    "name": "Kling, Kuphal and Lebsack",
    "hours": [],
    "phone_number": "(310) 411-2725",
    "address": {
      "address_line": "922 Thea Flat",
      "city": "Ferryfort",
      "zip_code": "13073-9649",
      "state": "Texas",
      "cc": "Malta"
    }
  },
  {
    "name": "Dickinson Inc",
    "hours": [],
    "phone_number": "(091) 583-6058",
    "address": {
      "address_line": "0925 Johnston Ferry",
      "city": "Runtemouth",
      "zip_code": "41504-7452",
      "state": "Florida",
      "cc": "San Marino"
    }
  },
  {
    "name": "Fisher, Mertz and West",
    "hours": [],
    "phone_number": "994-020-8564 x7199",
    "address": {
      "address_line": "740 Stefanie Light",
      "city": "Xaviermouth",
      "zip_code": "25488",
      "state": "Utah",
      "cc": "Nicaragua"
    }
  },
  {
    "name": "Nolan, Tillman and Keebler",
    "hours": [],
    "phone_number": "(443) 274-5758 x813",
    "address": {
      "address_line": "1836 Lydia Rapids",
      "city": "Maximeburgh",
      "zip_code": "56573-2861",
      "state": "Colorado",
      "cc": "Nigeria"
    }
  },
  {
    "name": "Kessler, O'Connell and Farrell",
    "hours": [],
    "phone_number": "474-506-5857 x293",
    "address": {
      "address_line": "56709 Collier Trace",
      "city": "New Janaborough",
      "zip_code": "99798-2455",
      "state": "Connecticut",
      "cc": "Tunisia"
    }
  },
  {
    "name": "Turner and Sons",
    "hours": [],
    "phone_number": "898-874-0917",
    "address": {
      "address_line": "6995 Archibald Shoals",
      "city": "East Everettport",
      "zip_code": "37547-9953",
      "state": "Delaware",
      "cc": "Reunion"
    }
  },
  {
    "name": "Goldner Group",
    "hours": [],
    "phone_number": "(025) 832-7035",
    "address": {
      "address_line": "660 Kshlerin Keys",
      "city": "West Jackiemouth",
      "zip_code": "62526",
      "state": "Oregon",
      "cc": "Montenegro"
    }
  },
  {
    "name": "Schmeler - Lemke",
    "hours": [],
    "phone_number": "(336) 649-7205 x42044",
    "address": {
      "address_line": "238 Matteo Dam",
      "city": "Jacobsonfort",
      "zip_code": "35263",
      "state": "Arkansas",
      "cc": "Puerto Rico"
    }
  },
  {
    "name": "Pacocha, Kreiger and Kerluke",
    "hours": [],
    "phone_number": "1-784-342-7254 x2801",
    "address": {
      "address_line": "3300 Charlie Points",
      "city": "Sawaynburgh",
      "zip_code": "55876-5704",
      "state": "Hawaii",
      "cc": "Canada"
    }
  },
  {
    "name": "Little, Lemke and Carroll",
    "hours": [],
    "phone_number": "296.073.0560 x77861",
    "address": {
      "address_line": "83390 Saul Forks",
      "city": "Port Noemyberg",
      "zip_code": "69034-8011",
      "state": "Hawaii",
      "cc": "Hong Kong"
    }
  },
  {
    "name": "DuBuque Inc",
    "hours": [],
    "phone_number": "915.010.9172 x2897",
    "address": {
      "address_line": "279 Lonie Cape",
      "city": "South Richieborough",
      "zip_code": "70836",
      "state": "Florida",
      "cc": "British Indian Ocean Territory (Chagos Archipelago)"
    }
  },
  {
    "name": "Brekke, Krajcik and Fahey",
    "hours": [],
    "phone_number": "504.389.6756 x253",
    "address": {
      "address_line": "13704 Tremblay Mountain",
      "city": "Gutkowskihaven",
      "zip_code": "67301-5148",
      "state": "Arizona",
      "cc": "Aruba"
    }
  },
  {
    "name": "Gislason, Parker and Sawayn",
    "hours": [],
    "phone_number": "1-513-220-0066 x2866",
    "address": {
      "address_line": "120 Jones Path",
      "city": "Elmiraborough",
      "zip_code": "35624",
      "state": "Indiana",
      "cc": "Macedonia"
    }
  },
  {
    "name": "Bosco - Parker",
    "hours": [],
    "phone_number": "729-156-6395 x7883",
    "address": {
      "address_line": "33173 Maybell Fork",
      "city": "South Daphneehaven",
      "zip_code": "73479-6857",
      "state": "Vermont",
      "cc": "Iraq"
    }
  },
  {
    "name": "Gislason, Harris and Borer",
    "hours": [],
    "phone_number": "1-256-435-2809 x61861",
    "address": {
      "address_line": "28873 Heller Lakes",
      "city": "Gulgowskiland",
      "zip_code": "10007",
      "state": "Georgia",
      "cc": "Saint Helena"
    }
  },
  {
    "name": "Lindgren Inc",
    "hours": [],
    "phone_number": "184.595.6570 x250",
    "address": {
      "address_line": "3639 Libbie Via",
      "city": "Port Millerburgh",
      "zip_code": "92504",
      "state": "Indiana",
      "cc": "Mongolia"
    }
  },
  {
    "name": "Jaskolski and Sons",
    "hours": [],
    "phone_number": "070-354-3722",
    "address": {
      "address_line": "26775 Lee Terrace",
      "city": "Dachstad",
      "zip_code": "92031-1725",
      "state": "Rhode Island",
      "cc": "Tanzania"
    }
  },
  {
    "name": "Daugherty LLC",
    "hours": [],
    "phone_number": "1-984-232-4627 x611",
    "address": {
      "address_line": "7989 Marquardt Trail",
      "city": "Port Eunahaven",
      "zip_code": "19153-6005",
      "state": "Florida",
      "cc": "Madagascar"
    }
  },
  {
    "name": "Stark, Adams and Schulist",
    "hours": [],
    "phone_number": "(214) 281-3837",
    "address": {
      "address_line": "32499 Kiehn Via",
      "city": "East Rozellaview",
      "zip_code": "51813-6941",
      "state": "South Dakota",
      "cc": "Afghanistan"
    }
  },
  {
    "name": "Howell, Glover and Rowe",
    "hours": [],
    "phone_number": "649-436-9771 x8781",
    "address": {
      "address_line": "266 Wolff Inlet",
      "city": "Lake Dewayne",
      "zip_code": "83471-9081",
      "state": "North Carolina",
      "cc": "Norfolk Island"
    }
  },
  {
    "name": "Medhurst - Hessel",
    "hours": [],
    "phone_number": "1-677-265-3511 x7070",
    "address": {
      "address_line": "3393 Jackie Hill",
      "city": "East Aurore",
      "zip_code": "34714-3643",
      "state": "Illinois",
      "cc": "Slovakia (Slovak Republic)"
    }
  },
  {
    "name": "Abshire - Kirlin",
    "hours": [],
    "phone_number": "257-950-5417",
    "address": {
      "address_line": "100 West Drives",
      "city": "Boehmshire",
      "zip_code": "56921-5287",
      "state": "Maine",
      "cc": "Latvia"
    }
  },
  {
    "name": "Haley - Schowalter",
    "hours": [],
    "phone_number": "757.367.6492 x8206",
    "address": {
      "address_line": "92178 Mertz Summit",
      "city": "Laviniastad",
      "zip_code": "86054-3859",
      "state": "New Mexico",
      "cc": "Singapore"
    }
  }
]
